[{
        "name": "Alexander Building",
        "lat": 50.729988,
        "long": -3.5383565
    },
    {
        "name": "Amory Building",
        "lat": 50.736479,
        "long": -3.5316277
    },
    {
        "name": "Building:One",
        "lat": 50.736821,
        "long": -3.5297051
    },
    {
        "name": "Byrne House",
        "lat": 50.7344427,
        "long": -3.5254291
    },
    {
        "name": "Clayden",
        "lat": 50.7322499,
        "long": -3.5392321
    },
    {
        "name": "Clydesdale House",
        "lat": 50.736445,
        "long": -3.54028
    },
    {
        "name": "Cornwall House",
        "lat": 50.7344095,
        "long": -3.5291117
    },
    {
        "name": "Devonshire House",
        "lat": 50.73516670000001,
        "long": -3.534269
    },
    {
        "name": "Estate Services Centre",
        "lat": 50.7372977,
        "long": -3.5407791
    },
    {
        "name": "Exeter Northcott Theatre",
        "lat": 50.7358333,
        "long": -3.5352778
    },
    {
        "name": "Forum",
        "lat": 50.7354294,
        "long": -3.5335708
    },
    {
        "name": "Forum Library (Rashid Building)",
        "lat": 50.7354294,
        "long": -3.5335708
    },
    {
        "name": "Geoffrey Pope Building",
        "lat": 50.73666069999999,
        "long": -3.5351155
    },
    {
        "name": "The Great Hall",
        "lat": 50.73544159999999,
        "long": -3.534546
    },
    {
        "name": "Haighton Library",
        "lat": 50.7221811,
        "long": -3.5160732
    },
    {
        "name": "Harrison Building",
        "lat": 50.7352484,
        "long": -3.5336984
    },
    {
        "name": "Hatherly Building",
        "lat": 50.7340169,
        "long": -3.533349
    },
    {
        "name": "Henry Wellcome Building for Biocatalysis",
        "lat": 50.7367135,
        "long": -3.5356199
    },
    {
        "name": "Hope Hall",
        "lat": 50.7338546,
        "long": -3.5265898
    },
    {
        "name": "IAIS Building",
        "lat": 50.73636,
        "long": -3.537157
    },
    {
        "name": "Innovation Centre",
        "lat": 50.7385055,
        "long": -3.5310044
    },
    {
        "name": "Innovation Centre Phase 2",
        "lat": 50.7383786,
        "long": -3.5310903
    },
    {
        "name": "INTO University of Exeter Building",
        "lat": 50.7360903,
        "long": -3.5337199
    },
    {
        "name": "Kay Building",
        "lat": 50.737749,
        "long": -3.531823
    },
    {
        "name": "Kay House Duryard",
        "lat": 50.7409551,
        "long": -3.5446154
    },
    {
        "name": "Knightley",
        "lat": 50.7326241,
        "long": -3.5380953
    },
    {
        "name": "Lafrowda House",
        "lat": 50.7352775,
        "long": -3.5280684
    },
    {
        "name": "Laver Building",
        "lat": 50.737453,
        "long": -3.5335046
    },
    {
        "name": "Lazenby",
        "lat": 50.7333168,
        "long": -3.5259036
    },
    {
        "name": "Living Systems Institute (LSI)",
        "lat": 50.7368941,
        "long": -3.5346656
    },
    {
        "name": "Mary Harris Memorial Chapel of the Holy Trinity",
        "lat": 50.7335342,
        "long": -3.5347597
    },
    {
        "name": "Newman Building",
        "lat": 50.73649140000001,
        "long": -3.5359668
    },
    {
        "name": "Northcote House",
        "lat": 50.7353274,
        "long": -3.5350341
    },
    {
        "name": "Northcott Theatre",
        "lat": 50.7358333,
        "long": -3.5352778
    },
    {
        "name": "Old Library",
        "lat": 50.7332853,
        "long": -3.5340683
    },
    {
        "name": "Peter Chalk Centre",
        "lat": 50.73624,
        "long": -3.5360904
    },
    {
        "name": "Physics Building",
        "lat": 50.73717449999999,
        "long": -3.5360584
    },
    {
        "name": "Queen's Building",
        "lat": 50.7340442,
        "long": -3.535082
    },
    {
        "name": "Reed Hall",
        "lat": 50.7357548,
        "long": -3.5381658
    },
    {
        "name": "Reed Mews",
        "lat": 50.7359901,
        "long": -3.5382805
    },
    {
        "name": "Roborough",
        "lat": 50.733218,
        "long": -3.5352715
    },
    {
        "name": "Sir Henry Wellcome Building for Mood Disorders Research (MDRC)",
        "lat": 50.73335030000001,
        "long": -3.5362468
    },
    {
        "name": "Sports Park",
        "lat": 50.7359368,
        "long": -3.5344174
    },
    {
        "name": "Streatham Court",
        "lat": 50.7356697,
        "long": -3.5308967
    },
    {
        "name": "Streatham Farm",
        "lat": 50.7352177,
        "long": -3.5323833
    },
    {
        "name": "Thornlea Complex <br> (Incl Thornlea White House, Thornlea Cottage, Rannoch and Alexander Building)",
        "lat": 50.729988,
        "long": -3.5383565
    },
    {
        "name": "Washington Singer Laboratories",
        "lat": 50.7331711,
        "long": -3.5364793
    },
    {
        "name": "Xfi Building",
        "lat": 50.7358967,
        "long": -3.5299574
    }
]